{
  "data": {
    "result": [
      {
        "city": "Fairfield",
        "country": "us",
        "lat": 41.16999816894531,
        "lon": -73.2699966430664,
        "name": "Fairfield, CT, USA",
        "state": "CT",
        "timeZone": "",
        "borough": "",
        "localizedCountryName": "us",
        "neighborhood": "",
        "zip": "06824",
        "__typename": "LocationSearch"
      },
      {
        "city": "Wallingford",
        "country": "us",
        "lat": 41.459999084472656,
        "lon": -72.81999969482422,
        "name": "Wallingford, CT, USA",
        "state": "CT",
        "timeZone": "",
        "borough": "",
        "localizedCountryName": "us",
        "neighborhood": "",
        "zip": "06492",
        "__typename": "LocationSearch"
      },
      {
        "city": "Westport",
        "country": "us",
        "lat": 41.13999938964844,
        "lon": -73.3499984741211,
        "name": "Westport, CT, USA",
        "state": "CT",
        "timeZone": "",
        "borough": "",
        "localizedCountryName": "us",
        "neighborhood": "",
        "zip": "06880",
        "__typename": "LocationSearch"
      },
      {
        "city": "Cheshire",
        "country": "us",
        "lat": 41.5,
        "lon": -72.9000015258789,
        "name": "Cheshire, CT, USA",
        "state": "CT",
        "timeZone": "",
        "borough": "",
        "localizedCountryName": "us",
        "neighborhood": "",
        "zip": "06408",
        "__typename": "LocationSearch"
      },
      {
        "city": "Hamden",
        "country": "us",
        "lat": 41.369998931884766,
        "lon": -72.94000244140625,
        "name": "Hamden, CT, USA",
        "state": "CT",
        "timeZone": "",
        "borough": "",
        "localizedCountryName": "us",
        "neighborhood": "",
        "zip": "06514",
        "__typename": "LocationSearch"
      }
    ]
  }
}